lat,lon,name,type
37.5626885,126.92580159999999,Ahn,베트남
37.5219735,127.04055530000001,마오 청담점,중식
37.5126184,127.0555949,브루클린더버거조인트 삼성점,햄버거
37.4833795,127.0447533,평양면옥,냉면
37.5498913,126.9156617,팔로피자,피자
